OrekitAccessDopplerCalculator/UTCTimePred.txt

Satellite passes / Orbitron 3.71 / www.stoff.pl

Location      : RIT (77.6042° W, 43.1574° N)
Time zone     : UTC
Search period : 2020-01-22 21:53:50 - 3 days
                2020-01-25 21:53:50
Conditions    : Maximum sun elevation = None
                Minimum sat elevation = 0 deg
                Illumination NOT required

Time                Satellite              Azm  Elv  Mag Range S.Azm S.Elv
--------------------------------------------------------------------------
2020-01-23 07:50:03 FALCONSAT-3          159.9  0.0  ecl  2510  64.5 -51.1
2020-01-23 07:51:33 FALCONSAT-3          144.9  0.6  ecl  2436  64.9 -50.8
2020-01-23 07:53:03 FALCONSAT-3          129.9  0.0  ecl  2514  65.3 -50.6

2020-01-23 09:24:32 FALCONSAT-3          213.1  0.0  ecl  2510  84.9 -34.5
2020-01-23 09:29:22 FALCONSAT-3          157.7 11.2  ecl  1512  85.8 -33.6
2020-01-23 09:34:12 FALCONSAT-3          102.7  0.0    ?  2523  86.7 -32.7

2020-01-23 11:02:01 FALCONSAT-3          240.8  0.0  ecl  2516 101.3 -16.8
2020-01-23 11:07:30 FALCONSAT-3          172.8 22.1    ?  1038 102.1 -15.8
2020-01-23 11:13:01 FALCONSAT-3          104.4  0.0    ?  2524 103.0 -14.8

2020-01-23 12:40:19 FALCONSAT-3          255.9  0.0    ?  2519 117.3   0.6
2020-01-23 12:45:48 FALCONSAT-3          188.1 21.8    ?  1048 118.3   1.3
2020-01-23 12:51:17 FALCONSAT-3          120.1  0.0    ?  2517 119.2   2.2

2020-01-23 14:19:09 FALCONSAT-3          257.0  0.0    ?  2523 135.7  14.6
2020-01-23 14:23:56 FALCONSAT-3          202.8 10.8    ?  1542 136.7  15.2
2020-01-23 14:28:43 FALCONSAT-3          148.3  0.0    ?  2512 137.7  15.8

2020-01-23 16:00:43 FALCONSAT-3          225.7  0.0    ?  2518 158.8  24.7
2020-01-23 16:01:44 FALCONSAT-3          215.6  0.3    ?  2482 159.1  24.7
2020-01-23 16:02:44 FALCONSAT-3          205.7  0.0    ?  2514 159.3  24.8

2020-01-24 08:47:12 FALCONSAT-3          210.0  0.0  ecl  2509  77.5 -41.1
2020-01-24 08:51:54 FALCONSAT-3          156.7 10.2  ecl  1576  78.4 -40.3
2020-01-24 08:56:37 FALCONSAT-3          103.4  0.0    ?  2518  79.4 -39.4

2020-01-24 10:24:34 FALCONSAT-3          238.9  0.0  ecl  2514  95.0 -23.4
2020-01-24 10:30:02 FALCONSAT-3          171.2 21.4    ?  1060  95.9 -22.4
2020-01-24 10:35:30 FALCONSAT-3          103.7  0.0    ?  2519  96.8 -21.5

2020-01-24 12:02:49 FALCONSAT-3          255.1  0.0  ecl  2519 110.8  -6.0
2020-01-24 12:08:19 FALCONSAT-3          186.8 22.4    ?  1028 111.8  -5.1
2020-01-24 12:13:50 FALCONSAT-3          118.2  0.0    ?  2520 112.7  -4.2

2020-01-24 13:41:35 FALCONSAT-3          257.6  0.0    ?  2523 128.1   9.7
2020-01-24 13:46:29 FALCONSAT-3          201.5 11.8    ?  1480 129.1  10.4
2020-01-24 13:51:23 FALCONSAT-3          145.2  0.0    ?  2516 130.0  11.1

2020-01-24 15:22:21 FALCONSAT-3          234.3  0.0    ?  2520 149.4  21.8
2020-01-24 15:24:19 FALCONSAT-3          214.5  1.0    ?  2385 149.9  22.0
2020-01-24 15:26:16 FALCONSAT-3          194.9  0.0    ?  2514 150.3  22.2

2020-01-25 08:09:53 FALCONSAT-3          206.7  0.0  ecl  2508  68.9 -47.5
2020-01-25 08:14:27 FALCONSAT-3          155.5  9.2  ecl  1643  70.0 -46.7
2020-01-25 08:19:02 FALCONSAT-3          104.3  0.0  ecl  2519  71.0 -45.9

2020-01-25 09:47:07 FALCONSAT-3          236.9  0.0  ecl  2514  88.4 -30.2
2020-01-25 09:52:33 FALCONSAT-3          170.0 20.6  ecl  1085  89.4 -29.2
2020-01-25 09:58:00 FALCONSAT-3          103.1  0.0    ?  2522  90.3 -28.2

2020-01-25 11:25:19 FALCONSAT-3          254.2  0.0  ecl  2519 104.6 -12.4
2020-01-25 11:30:50 FALCONSAT-3          185.5 22.9    ?  1011 105.4 -11.4
2020-01-25 11:36:22 FALCONSAT-3          116.4  0.0    ?  2520 106.3 -10.5

2020-01-25 13:04:02 FALCONSAT-3          258.0  0.0    ?  2520 121.1   4.3
2020-01-25 13:09:02 FALCONSAT-3          200.1 12.9    ?  1421 121.9   5.1
2020-01-25 13:14:01 FALCONSAT-3          142.3  0.0    ?  2516 122.8   5.8

2020-01-25 14:44:21 FALCONSAT-3          239.3  0.0    ?  2519 140.7  18.1
2020-01-25 14:46:53 FALCONSAT-3          213.5  1.8    ?  2291 141.2  18.3
2020-01-25 14:49:25 FALCONSAT-3          187.7  0.0    ?  2514 141.8  18.6

